{
"type": "FeatureCollection",
"crs": { "type": "name", "properties": { "name": "urn:ogc:def:crs:OGC:1.3:CRS84" } },
"features": [
{ "type": "Feature", "properties": { "Name": "Pablo y Pablo", "Chatter": "the latest from the Heavy Restaurant Group, the people behind the Purple Cafe and Wine bars and neighborhood spots like Meet the Moon. Its latest, north of Gas Works Park, is a casual Mexican bar restaurant, though it won’t resemble the same company's popular mescal spot Barrio on Capitol Hill. A dozen different tacos, from wild boar meatballs to lamb belly \"carnitas,\" are featured, along with Mexican comfort food with little Latin tweaks. There are beers from Honduras, Costa Rica and Guatemala. Like at Barrio, Pablo y Pablo also boasts a big agave spirits list, around 70 different mescals and tequilas. The 2,500-square-foot restaurant seats 70 inside and 30 out on the patio.", "lat": 47.647896, "lng": -122.3385971 }, "geometry": { "type": "Point", "coordinates": [ -122.3386, 47.6479 ] } },
{ "type": "Feature", "properties": { "Name": "Tentenyu", "Chatter": "Started in Kyoto, Japan, and expanded with two locations in California before opening on Capitol Hill in July. The owners saw a growing ramen market in the Seattle area, a spokeswoman said. Its Tentenyu Chashu ramen is supersized with 8 pork slices. There’s also a vegetarian ramen option.", "lat": 47.6142216, "lng": -122.3244186 }, "geometry": { "type": "Point", "coordinates": [ -122.32442, 47.61422 ] } },
{ "type": "Feature", "properties": { "Name": "Betsutenjin Ramen", "Chatter": "Another new ramen spot.", "lat": 47.6132416, "lng": -122.3198411 }, "geometry": { "type": "Point", "coordinates": [ -122.31984, 47.61324 ] } },
{ "type": "Feature", "properties": { "Name": "Ba Bar", "Chatter": "All the favorites, from spring rolls to its pho-ramen hybrid, are offered. This new Ba Bar will double as a test kitchen; expect banh mis, egg noodles and other new dishes to be launched there first before you see them at the Capitol Hill or South Lake Union branches.", "lat": 47.661832, "lng": -122.298976 }, "geometry": { "type": "Point", "coordinates": [ -122.29898, 47.66183 ] } },
{ "type": "Feature", "properties": { "Name": "Flying Boots & Wings @ravenna", "Chatter": "Ravenna Alehouse is now Flying Boots & Wings @ravenna, the same folks behind the popular chicken-wing joint in Tacoma", "lat": 47.6759576, "lng": -122.3033296 }, "geometry": { "type": "Point", "coordinates": [ -122.30333, 47.67596 ] } },
{ "type": "Feature", "properties": { "Name": "Opus Co.", "Chatter": "A wood-fire restaurant in Phinney Ridge from chef Mark Schroder, former chef de cuisine at Trove.", "lat": 47.6828655, "lng": -122.355026 }, "geometry": { "type": "Point", "coordinates": [ -122.35503, 47.68287 ] } },
{ "type": "Feature", "properties": { "Name": "2120", "Chatter": "Arguably the most popular lunch spot on the Amazon campus now, from the folks behind 99 Park Restaurant in Bellevue. The menu is contemporary American cuisine, with seafood, lamb tartare and Wagyu beef burgers.", "lat": 47.6157421, "lng": -122.34015 }, "geometry": { "type": "Point", "coordinates": [ -122.34015, 47.61574 ] } },
{ "type": "Feature", "properties": { "Name": "Lady Yum", "Chatter": "Expansion of Kirkland-based macaron sweet treats on the Amazon campus.", "lat": 47.615965, "lng": -122.340368 }, "geometry": { "type": "Point", "coordinates": [ -122.34037, 47.61597 ] } },
{ "type": "Feature", "properties": { "Name": "Pinxto", "Chatter": "Relocated, expect an expanded and more ambitious dinner menu now that there's a bigger kitchen to play with.", "lat": 47.6148364, "lng": -122.3436424 }, "geometry": { "type": "Point", "coordinates": [ -122.34364, 47.61484 ] } },
{ "type": "Feature", "properties": { "Name": "Wallyburger", "Chatter": "A western themed burger-and-shake joint that's more Roy Rogers than Jesse James. Part Austin roadhouse, part saloon, is how the owners described it.", "lat": 47.6612686, "lng": -122.33645 }, "geometry": { "type": "Point", "coordinates": [ -122.33645, 47.66127 ] } },
{ "type": "Feature", "properties": { "Name": "Ma’ono Fried Chicken", "Chatter": "A walk-up window inside Rachel's Ginger Beer at the U Village, similar to the setup of other Rachel's bars around town. Like much of Mark Fuller's fare, the food has Hawaiian and Asian tweaks — fried chicken sandwiches are served on King’s sweet buns and topped with daikon pickles, and the mac and cheese gets spiced up with Korean chiles. The limited menu consists of just three sandwiches, two salads and four sides.", "lat": 47.6622441, "lng": -122.2998747 }, "geometry": { "type": "Point", "coordinates": [ -122.29987, 47.66224 ] } },
{ "type": "Feature", "properties": { "Name": "Terry's Kitchen", "Chatter": "Comfort food spanning east and west, from loco moco and chow mein to burgers and pork chops. The owner is also opening a pool hall and bar next to this Newport Hills restaurant by the end of the year.", "lat": 47.5522102, "lng": -122.1791864 }, "geometry": { "type": "Point", "coordinates": [ -122.17919, 47.55221 ] } },
{ "type": "Feature", "properties": { "Name": "Triangle Spirits", "Chatter": "Purchased by some bartenders and other industry peeps. But don't expect any major overhaul with the food-and-drink menu until next year.", "lat": 47.6508664, "lng": -122.3508389 }, "geometry": { "type": "Point", "coordinates": [ -122.35084, 47.65087 ] } },
{ "type": "Feature", "properties": { "Name": "Moon's Kitchen", "Chatter": "Teriyaki, katsu, ramen and yakisoba, but its Instagram-friendly flower pot ice cream seems to get all the love.", "lat": 47.6146196, "lng": -122.3432733 }, "geometry": { "type": "Point", "coordinates": [ -122.34327, 47.61462 ] } },
{ "type": "Feature", "properties": { "Name": "Indi Chocolate Café & Chocolate Factory", "Chatter": "Open in the new MarketFront building at Pike Place Market. You can watch them make chocolate behind the glass window. There's also pastries and an espresso bar.", "lat": 47.6086274, "lng": -122.3407369 }, "geometry": { "type": "Point", "coordinates": [ -122.34074, 47.60863 ] } },
{ "type": "Feature", "properties": { "Name": "Old Stove Brewing", "Chatter": "New MarketFront building", "lat": 47.6086274, "lng": -122.3407369 }, "geometry": { "type": "Point", "coordinates": [ -122.34074, 47.60863 ] } },
{ "type": "Feature", "properties": { "Name": "Jarr & Co.", "Chatter": "New MarketFront building", "lat": 47.6086274, "lng": -122.3407369 }, "geometry": { "type": "Point", "coordinates": [ -122.34074, 47.60863 ] } },
{ "type": "Feature", "properties": { "Name": "Honest Biscuits", "Chatter": "New MarketFront building", "lat": 47.6086274, "lng": -122.3407369 }, "geometry": { "type": "Point", "coordinates": [ -122.34074, 47.60863 ] } },
{ "type": "Feature", "properties": { "Name": "Carnivore", "Chatter": "Paleo food and craft cocktails with chef Seamus Platt of Mollusk and Girin heading the kitchen.", "lat": 47.6665588, "lng": -122.3837549 }, "geometry": { "type": "Point", "coordinates": [ -122.38375, 47.66656 ] } },
{ "type": "Feature", "properties": { "Name": "Tankard & Tun", "Chatter": "Seafood retaurant from the couple behind The Pike Brewing Company.", "lat": 47.6082134, "lng": -122.3397797 }, "geometry": { "type": "Point", "coordinates": [ -122.33978, 47.60821 ] } },
{ "type": "Feature", "properties": { "Name": "Dexter Brewhouse", "Chatter": "Mollusk brewery in South Lake Union is rebranding as Dexter Brewhouse: new pub food menu, same beer.", "lat": 47.6268822, "lng": -122.3426141 }, "geometry": { "type": "Point", "coordinates": [ -122.34261, 47.62688 ] } },
{ "type": "Feature", "properties": { "Name": "Water's Table", "Chatter": "236 seats and a view of Lake Washington in the Hyatt Regency in Renton. The hotel restaurant focuses on pan-Asian cuisine.", "lat": 47.503298, "lng": -122.205654 }, "geometry": { "type": "Point", "coordinates": [ -122.20565, 47.5033 ] } },
{ "type": "Feature", "properties": { "Name": "Bun & Oc", "Chatter": "Escargot 10 different ways, a Vietnamese delicacy that never became mainstream. This noodle house in the Chinatown-International District is the latest to give escargot a go.", "lat": 47.5984897, "lng": -122.3138963 }, "geometry": { "type": "Point", "coordinates": [ -122.3139, 47.59849 ] } },
{ "type": "Feature", "properties": { "Name": "Lan Hue", "Chatter": "Sandwich shop with 17 different banh mis from pate to grilled pork. The grand-opening special: buy five banh mi, get one free.", "lat": 47.5383819, "lng": -122.282113 }, "geometry": { "type": "Point", "coordinates": [ -122.28211, 47.53838 ] } },
{ "type": "Feature", "properties": { "Name": "Coba", "Chatter": "Another Vietnamese restaurant, focusing on pho and vermicelli noodles and for brunch, beef stew and chicken congee.", "lat": 47.6241187, "lng": -122.3550511 }, "geometry": { "type": "Point", "coordinates": [ -122.35505, 47.62412 ] } },
{ "type": "Feature", "properties": { "Name": "Falafel Salam", "Chatter": "The popular food truck now has a brick-and-mortar in West Seattle with an expanded menu and even beer.", "lat": 47.5596772, "lng": -122.3864962 }, "geometry": { "type": "Point", "coordinates": [ -122.3865, 47.55968 ] } },
{ "type": "Feature", "properties": { "Name": "Great American Diner & Bar", "Chatter": "A bit more ambitious than your usual greasy spoon with wild-caught coho and jambalaya on the menu.", "lat": 47.5595084, "lng": -122.3864946 }, "geometry": { "type": "Point", "coordinates": [ -122.38649, 47.55951 ] } },
{ "type": "Feature", "properties": { "Name": "King Philly Cheesesteaks", "Chatter": "Wings and a veggie sandwich are on the menu, but it should be obvious what to order here.", "lat": 47.532029, "lng": -122.269582 }, "geometry": { "type": "Point", "coordinates": [ -122.26958, 47.53203 ] } },
{ "type": "Feature", "properties": { "Name": "Cheese Meats Bread", "Chatter": "CMB, short for Cheese Meats Bread, opens inside the Uwajimaya food court, from the same owner behind 8oz Burger & Co on Capitol Hill and in Ballard. The kitchen toyed with different grilled cheese combos before settling on a five-cheese blend of Beecher’s flagship white cheddar, buffalo mozzarella, mild cheddar, fontina and muenster.", "lat": 47.5974174, "lng": -122.3273719 }, "geometry": { "type": "Point", "coordinates": [ -122.32737, 47.59742 ] } },
{ "type": "Feature", "properties": { "Name": "Great State Burger", "Chatter": "Great State's fourth location.", "lat": 47.59761, "lng": -122.3270141 }, "geometry": { "type": "Point", "coordinates": [ -122.32701, 47.59761 ] } },
{ "type": "Feature", "properties": { "Name": "Tacos de la Noche", "Chatter": "The new walk-up window inside Bar Sue, the underrated whiskey bar on Capitol Hill. It hawks tacos, tortas and nachos.", "lat": 47.6131397, "lng": -122.3143376 }, "geometry": { "type": "Point", "coordinates": [ -122.31434, 47.61314 ] } },
{ "type": "Feature", "properties": { "Name": "El Taco Loco", "Chatter": "Opens inside Ballard Liquor Store, serving $2 tacos and other Mexican fare.", "lat": 47.6688942, "lng": -122.3931969 }, "geometry": { "type": "Point", "coordinates": [ -122.3932, 47.66889 ] } },
{ "type": "Feature", "properties": { "Name": "SWeL", "Chatter": "An eclectic menu of seafood and pizza, and like the bar it replaced, Sixgill, also has a stellar draft list.", "lat": 47.6505336, "lng": -122.3517838 }, "geometry": { "type": "Point", "coordinates": [ -122.35178, 47.65053 ] } },
{ "type": "Feature", "properties": { "Name": "BB's Teriyaki Grill", "Chatter": "Big, cheap portions for the college crowd.", "lat": 47.6589834, "lng": -122.3135165 }, "geometry": { "type": "Point", "coordinates": [ -122.31352, 47.65898 ] } },
{ "type": "Feature", "properties": { "Name": "B-Side", "Chatter": "From the same folks behind Analog Coffee, a short and simple breakfast-and-lunch menu (frittata to smoked trout).", "lat": 47.6206588, "lng": -122.325592 }, "geometry": { "type": "Point", "coordinates": [ -122.32559, 47.62066 ] } },
{ "type": "Feature", "properties": { "Name": "CTO", "Chatter": "Inside Beer Star in White Center, Li'l Woody's and CTO are both open, the latter is food inspired by Chinese-American greasy spoons.", "lat": 47.5154001, "lng": -122.3554574 }, "geometry": { "type": "Point", "coordinates": [ -122.35546, 47.5154 ] } },
{ "type": "Feature", "properties": { "Name": "Lil Woody's", "Chatter": "Inside Beer Star in White Center, Li'l Woody's and CTO are both open, the latter is food inspired by Chinese-American greasy spoons.", "lat": 47.5154001, "lng": -122.3554574 }, "geometry": { "type": "Point", "coordinates": [ -122.35546, 47.5154 ] } },
{ "type": "Feature", "properties": { "Name": "RPM", "Chatter": "There's pizza again in the old Pizzeria Gabbiano spot in Pioneer Square but under different ownership: RPM, short for Revolution Pizza Music.", "lat": 47.6002122, "lng": -122.3311793 }, "geometry": { "type": "Point", "coordinates": [ -122.33118, 47.60021 ] } },
{ "type": "Feature", "properties": { "Name": "Broadway Poke & Sushi", "Chatter": "What's a new-restaurants list without another poke opening?", "lat": 47.6204283, "lng": -122.3204674 }, "geometry": { "type": "Point", "coordinates": [ -122.32047, 47.62043 ] } }
]
}
